POI,Lon,Lat,Address
city_center,2.170037,41.386968,"Catalonia Square, Plaça de Catalunya, 08001 Barcelona, Spain"
metro,2.167015,41.385919,"Carrer de Balmes, 1, 08007 Barcelona, Spain"
metro,2.167646,41.386095,"Carrer de Bergara, 3, 08007 Barcelona, Spain"
metro,2.169598,41.385842,"BitBase ATM, Plaça Catalunya, 1, 08002 Barcelona, Spain"
metro,2.169503,41.385707,"BitBase ATM, Plaça Catalunya, 1, 08002 Barcelona, Spain"
metro,2.151636,41.399679,"Via Augusta, 59, 08006 Barcelona, Spain"
metro,2.152429,41.400039,"Col·legi d'Economistes de Catalunya, Via Augusta, 08006 Barcelona, Spain"
metro,2.152507,41.399554,"unnamed road, 08006 Barcelona, Spain"
metro,2.158326,41.392331,"Carrer de Provença, 244, 246, 08008 Barcelona, Spain"
metro,2.157649,41.393362,"Carrer del Rosselló, 200, 08008 Barcelona, Spain"
metro,2.157956,41.392909,"Provença, Carrer de Balmes, 08008 Barcelona, Spain"
metro,2.135427,41.397791,"Via Augusta, 08021 Barcelona, Spain"
metro,2.135114,41.397895,"Ametller Origen, Via Augusta, 256, 08017 Barcelona, Spain"
metro,2.135502,41.397638,"Carrer de Ganduxer, 08021 Barcelona, Spain"
metro,2.130075,41.398154,"Carrer del Milanesat, 17, 08017 Barcelona, Spain"
metro,2.130828,41.397781,"Via Augusta, 08022 Barcelona, Spain"
metro,2.143251,41.398645,"Via Augusta, 151, 08006 Barcelona, Spain"
metro,2.142754,41.398631,"Via Augusta, 160-170, 08021 Barcelona, Spain"
metro,2.142852,41.398976,"Fundació Internacional Josep Carreras, Carrer de Muntaner, 383, 08021 Barcelona, Spain"
metro,2.11937,41.399203,"Carrer de la Duquessa d'Orleans, 08034 Barcelona, Spain"
metro,2.118699,41.398423,"Avinguda de Josep Vicenç Foix, 08034 Barcelona, Spain"
metro,2.118998,41.398967,"St.George's School the British School of Catalunya, Carrer de la Duquessa d'Orleans, 08034 Barcelona, Spain"
metro,2.147016,41.401372,"unnamed road, 08006 Barcelona, Spain"
metro,2.125789,41.398544,"Via Augusta, 08021 Barcelona, Spain"
metro,2.124523,41.39935,"Via Augusta, 08034 Barcelona, Spain"
metro,2.125112,41.39896,"Via Augusta, 08034 Barcelona, Spain"
metro,2.137173,41.410227,"la Rotonda, Passeig de Sant Gervasi, 51-53, 08022 Barcelona, Spain"
metro,2.139248,41.405731,"Carrer de Balmes, 394, 08022 Barcelona, Spain"
metro,2.139256,41.406043,"Carrer de Balmes, 408, 08006 Barcelona, Spain"
metro,2.139529,41.405442,"Carrer de Balmes, 400, 08006 Barcelona, Spain"
metro,2.142617,41.403596,"Carrer de Balmes, 08006 Barcelona, Spain"
metro,2.143265,41.403133,"Carrer de Balmes, 319, 08006 Barcelona, Spain"
metro,2.142961,41.40344,"Ultrarapit, Carrer de Balmes, 348, 08006 Barcelona, Spain"
metro,2.147573,41.401403,"Plaça de Molina, 08006 Barcelona, Spain"
metro,2.086746,41.353011,"Carrer de Dolors Almeda i Roig, 08940 Cornellà de Llobregat, Spain"
metro,2.068427,41.351845,"unnamed road, 08940 Cornellà de Llobregat, Spain"
metro,2.148628,41.374547,"unnamed road, 08015 Barcelona, Spain"
metro,2.125369,41.357005,"Plaça d'Europa, 08908 l'Hospitalet de Llobregat, Spain"
metro,2.117531,41.35536,"Avinguda de Carmen Amaya, 08907 l'Hospitalet de Llobregat, Spain"
metro,2.13168,41.360962,"Avinguda de la Granvia de l'Hospitalet, 49, 08908 l'Hospitalet de Llobregat, Spain"
metro,2.130463,41.361391,"Petrocat, Avinguda de la Granvia de l'Hospitalet, 12, 08902 l'Hospitalet de Llobregat, Spain"
metro,2.103422,41.357794,"Kia AR Motors, Rambla de la Marina, 510, 08907 l'Hospitalet de Llobregat, Spain"
metro,2.139358,41.368228,"Gran Via de les Corts Catalanes, 08014 Barcelona, Spain"
metro,2.034689,41.357711,"BV-2002, 08830 Sant Boi de Llobregat, Spain"
metro,2.043259,41.348145,"229 Aparcament estació Sant Boi, Carrer Josep Torres i Bages, 08830 Sant Boi de Llobregat, Spain"
metro,2.11168,41.361271,"Avinguda del Carrilet, 08991 l'Hospitalet de Llobregat, Spain"
metro,2.180381,41.391664,"Avinguda de Vilanova, 08010 Barcelona, Spain"
metro,2.182218,41.393228,"Carrer de Nàpols, 78-42, 08010 Barcelona, Spain"
metro,2.180061,41.392387,"entrada al CAP, 08010 Barcelona, Spain"
metro,2.102669,41.357404,"Escola Patufet Sant Jordi - Francesc Batallé i Aragonès, Rambla de la Marina, 413, 08907 l'Hospitalet de Llobregat, Spain"
metro,2.103029,41.358779,"Carrer de Vigo, 08901 l'Hospitalet de Llobregat, Spain"
metro,2.102666,41.359299,"232 Metro L1 Av. Carrilet - Rbla. Marina, Rambla de la Marina, 08901 l'Hospitalet de Llobregat, Spain"
metro,2.200227,41.450043,"Besòs, 08033 Santa Coloma de Gramenet, Spain"
metro,2.199663,41.449896,"Parc Esportiu Urbà Varó de Viver. Skate Bon Pastor, Besòs, 08033 Barcelona, Spain"
metro,2.110686,41.351236,"Rambla de la Marina, 08907 l'Hospitalet de Llobregat, Spain"
metro,2.110976,41.351991,"Rambla de la Marina, 08907 l'Hospitalet de Llobregat, Spain"
metro,2.109898,41.351527,"Rambla de la Marina, 08907 l'Hospitalet de Llobregat, Spain"
metro,2.110588,41.350397,"Carrer de l'Ermita de Bellvitge, 08907 l'Hospitalet de Llobregat, Spain"
metro,2.111765,41.350916,"Rambla de la Marina, 08907 l'Hospitalet de Llobregat, Spain"
metro,2.103659,41.368289,"Avinguda d'Isabel la Catòlica, 08906 l'Hospitalet de Llobregat, Spain"
metro,2.103234,41.367647,"Avinguda Can Serra, Avinguda d'Isabel la Catòlica, 08906 l'Hospitalet de Llobregat, Spain"
metro,2.103931,41.368184,"unnamed road, 08906 l'Hospitalet de Llobregat, Spain"
metro,2.169597,41.388111,"Passeig de Gràcia, 1, 08007 Barcelona, Spain"
metro,2.169492,41.38757,"Catalonia Square, Plaça de Catalunya, 08001 Barcelona, Spain"
metro,2.168507,41.387706,"Desigual, Plaça de Catalunya, 9, 08007 Barcelona, Spain"
metro,2.170687,41.387914,"El Corte Inglés, Plaça de Catalunya, 08010 Barcelona, Spain"
metro,2.168588,41.3872,"Caixabank, Plaça Catalunya, 7, 08002 Barcelona, Spain"
metro,2.169507,41.387625,"Catalonia Square, Plaça de Catalunya, 08001 Barcelona, Spain"
metro,2.187344,41.408643,"Carrer d'Aragó, 08026 Barcelona, Spain"
metro,2.187148,41.409242,"Avinguda Meridiana, 140-132, 08026 Barcelona, Spain"
metro,2.187202,41.410828,"Avinguda Meridiana, 162-158, 08026 Barcelona, Spain"
metro,2.18753,41.411218,"Carrer de la Muntanya, 28, 08026 Barcelona, Spain"
metro,2.148309,41.375344,"Catalonia Barcelona Plaza, Plaça Espanya, 08015 Barcelona, Spain"
metro,2.149455,41.375546,"Gran Via de les Corts Catalanes (lateral muntanya), 373-385, 08015 Barcelona, Spain"
metro,2.148801,41.37538,"Plaça d'Espanya, 08015 Barcelona, Spain"
metro,2.183562,41.430861,"Col·legi Jesús Maria i Josep, Avinguda Meridiana, 392, 08030 Barcelona, Spain"
metro,2.183464,41.431138,"Avinguda Meridiana, 08016 Barcelona, Spain"
metro,2.184196,41.428993,"Concepció Arenal, Avinguda Meridiana, 08016 Barcelona, Spain"
metro,2.183628,41.430467,"Col·legi Jesús Maria i Josep, Avinguda Meridiana, 392, 08030 Barcelona, Spain"
metro,2.183584,41.430093,"Avinguda Meridiana, 08016 Barcelona, Spain"
metro,2.183324,41.430459,"Estació Fabra i Puig, 08016 Barcelona, Spain"
metro,2.110681,41.368521,"Plaça dels Blocs de la Florida, 20, 08905 l'Hospitalet de Llobregat, Spain"
metro,2.110396,41.367873,"Plaça dels Blocs de la Florida, 08905 l'Hospitalet de Llobregat, Spain"
metro,2.110875,41.368376,"Avinguda de Catalunya, 08905 l'Hospitalet de Llobregat, Spain"
metro,2.217787,41.451728,"Carrer de Beethoven, 41, 08922 Santa Coloma de Gramenet, Spain"
metro,2.217064,41.451761,"Rambla del Fondo, 15, 08922 Santa Coloma de Gramenet, Spain"
metro,2.21861,41.451596,"Rambla del Fondo, 46, 08922 Santa Coloma de Gramenet, Spain"
metro,2.187098,41.402063,"Plaça Josep Antoni Coderch, 36, 08018 Barcelona, Spain"
metro,2.18834,41.402984,"Disseny Hub Barcelona (DHUB), Plaça Santiago Pey, 37, 08018 Barcelona, Spain"
metro,2.187238,41.402882,"Plaça Josep Antoni Coderch, 08018 Barcelona, Spain"
metro,2.187513,41.402698,"Plaça Josep Antoni Coderch, 08018 Barcelona, Spain"
metro,2.106694,41.344339,"University Hospital of Bellvitge, Autovia de Castelldefels, 08907 l'Hospitalet de Llobregat, Spain"
metro,2.106409,41.34472,"University Hospital of Bellvitge, Autovia de Castelldefels, 08907 l'Hospitalet de Llobregat, Spain"
metro,2.144523,41.375356,"Carrer de la Creu Coberta, 74, 08014 Barcelona, Spain"
metro,2.143445,41.375552,"Carrer del Consell de Cent, 11, 08014 Barcelona, Spain"
metro,2.142362,41.375134,"Carrer de la Creu Coberta, 111, 08014 Barcelona, Spain"
metro,2.143991,41.375292,"Carrer de la Creu Coberta, 82, 08014 Barcelona, Spain"
metro,2.187227,41.421981,"Avinguda Meridiana, 290, 08027 Barcelona, Spain"
metro,2.187272,41.423089,"Avinguda Meridiana, 08027 Barcelona, Spain"
metro,2.187198,41.422492,"Avinguda Meridiana, 296, 08027 Barcelona, Spain"
metro,2.186428,41.39558,"Avinguda Meridiana, 08018 Barcelona, Spain"
metro,2.187072,41.395422,"Avinguda Meridiana, 30-32, 08018 Barcelona, Spain"
metro,2.186842,41.395574,"Avinguda Meridiana, 08018 Barcelona, Spain"
metro,2.13319,41.373293,"Carrer d'Antoni de Capmany, 69, 08014 Barcelona, Spain"
metro,2.133647,41.372953,"Carrer de la Riera de Tena, 08014 Barcelona, Spain"
metro,2.134546,41.374172,"CSA Can Vies, Carrer dels Jocs Florals, 42, 08014 Barcelona, Spain"
metro,2.134031,41.373543,"Mercat Nou, Carrer d'Antoni de Capmany, 08014 Barcelona, Spain"
metro,2.187294,41.416721,"Avinguda Meridiana, 238, 08027 Barcelona, Spain"
metro,2.187229,41.415812,"Carrer de Palència, 5B, 08027 Barcelona, Spain"
metro,2.187086,41.416156,"Avinguda Meridiana, 220, 08027 Barcelona, Spain"
metro,2.137493,41.37525,"Centre Cívic Cotxeres de Sants, Carrer de Sants, 79-81, 08014 Barcelona, Spain"
metro,2.138801,41.375217,"Carrer de Sants, 35, 08014 Barcelona, Spain"
metro,2.137301,41.37557,"Tacones, Carrer de Sants, 66, 08014 Barcelona, Spain"
metro,2.138845,41.375468,"Carrer de Sants, 40, 08014 Barcelona, Spain"
metro,2.138493,41.375542,"Carrer de Sants, 48-50, 08014 Barcelona, Spain"
metro,2.100302,41.362977,"Carrer del Bruc, 32, 08901 l'Hospitalet de Llobregat, Spain"
metro,2.100569,41.363695,"Avinguda de Josep Tarradellas i Joan, 08901 l'Hospitalet de Llobregat, Spain"
metro,2.099718,41.36366,"Avinguda de Josep Tarradellas i Joan, 193, 08801 l'Hospitalet de Llobregat, Spain"
metro,2.100304,41.364232,"vies 2, 3 i 4, Avinguda de Josep Tarradellas i Joan, 08901 l'Hospitalet de Llobregat, Spain"
metro,2.153966,41.37907,"Carrer de Rocafort, 80, 08015 Barcelona, Spain"
metro,2.154406,41.378685,"Gran Via de les Corts Catalanes, 448, 08015 Barcelona, Spain"
metro,2.15517,41.379461,"Gran Via de les Corts Catalanes, 08015 Barcelona, Spain"
metro,2.154913,41.379656,"Gran Via de les Corts Catalanes, 08015 Barcelona, Spain"
metro,2.154456,41.379149,"Gran Via de les Corts Catalanes (lateral mar), 08015 Barcelona, Spain"
metro,2.191104,41.437806,"Passeig de Torras i Bages, 08030 Barcelona, Spain"
metro,2.19105,41.436433,"Passeig de Torras i Bages, 08030 Barcelona, Spain"
metro,2.190747,41.437324,"Carrer de Joan Torras, 8I, 08030 Barcelona, Spain"
metro,2.207988,41.451908,"Xòcala Bar, Plaça de la Vila, 4, 08921 Santa Coloma de Gramenet, Spain"
metro,2.20835,41.451604,"Plaça de la Vila, 5, 08921 Santa Coloma de Gramenet, Spain"
metro,2.207416,41.451058,"Passeig de Llorenç Serra, 6, 08921 Santa Coloma de Gramenet, Spain"
metro,2.207161,41.451444,"Carrer de Francesc Vinyes, 08921 Santa Coloma de Gramenet, Spain"
metro,2.129976,41.369557,"Carrer de la Riera Blanca, 08903 l'Hospitalet de Llobregat, Spain"
metro,2.129175,41.369127,"Carrer de Santiago Ramón y Cajal, 08903 l'Hospitalet de Llobregat, Spain"
metro,2.128698,41.368443,"Carrer de Santiago Ramón y Cajal, 08903 l'Hospitalet de Llobregat, Spain"
metro,2.190501,41.442298,"Carrer de Palomar, 08030 Barcelona, Spain"
metro,2.19087,41.442305,"Passeig de Torras i Bages, 08030 Barcelona, Spain"
metro,2.190338,41.444154,"Passeig de Torras i Bages, 2, 08030 Barcelona, Spain"
metro,2.190709,41.444183,"Passeig de Torras i Bages, 08030 Barcelona, Spain"
metro,2.190665,41.443807,"Passeig de Torras i Bages, 08030 Barcelona, Spain"
metro,2.11649,41.368742,"Avinguda del Torrent Gornal, 08904 l'Hospitalet de Llobregat, Spain"
metro,2.11727,41.368154,"Carrer del Pintor Sorolla, 08904 l'Hospitalet de Llobregat, Spain"
metro,2.117108,41.368594,"706 METRO L1 La Torrassa, Carrer del Montseny, 08904 l'Hospitalet de Llobregat, Spain"
metro,2.194356,41.448967,"Ronda de Dalt – Nus de la Trinitat, 08033 Barcelona, Spain"
metro,2.194384,41.449539,"Ronda de Dalt – Nus de la Trinitat, 08033 Barcelona, Spain"
metro,2.164719,41.385814,"Plaça de la Universitat, 10-9, 08007 Barcelona, Spain"
metro,2.163474,41.385403,"Plaça de la Universitat, 08007 Barcelona, Spain"
metro,2.164571,41.386145,"Gran Via de les Corts Catalanes, 08007 Barcelona, Spain"
metro,2.164163,41.385551,"Plaça de la Universitat, 08007 Barcelona, Spain"
metro,2.159849,41.382668,"Can Bargalló, Gran Via de les Corts Catalanes, 540, 542, 08011 Barcelona, Spain"
metro,2.159449,41.382955,"Gran Via de les Corts Catalanes, 08011 Barcelona, Spain"
metro,2.158237,41.382056,"Gran Via de les Corts Catalanes, 08011 Barcelona, Spain"
metro,2.158998,41.382457,"Gran Via de les Corts Catalanes (lateral mar), 08011 Barcelona, Spain"
metro,2.175019,41.390021,"Ronda de Sant Pere, 08010 Barcelona, Spain"
metro,2.174004,41.389109,"Carrer de Trafalgar, 08010 Barcelona, Spain"
metro,2.173372,41.389401,"Plaça d'Urquinaona, 08010 Barcelona, Spain"
metro,2.17309,41.38952,"The George Payne, Plaça d'Urquinaona, 5, 08010 Barcelona, Spain"
metro,2.234241,41.440358,"METRO Gorg, Avinguda del Marquès de Mont-roig, 08910 Badalona, Spain"
metro,2.224024,41.442346,"Avinguda del Marquès de Sant Mori, 08914 Badalona, Spain"
metro,2.217243,41.441476,"Escoles Maria Ward, Carrer de Gravina, 1, 08913 Badalona, Spain"
metro,2.171017,41.462556,"Urbanització Santelvira, 10, 08110 Montcada i Reixac, Spain"
metro,2.17214,41.46292,"Carrer de la Circumvalació, 08033 Montcada i Reixac, Spain"
metro,2.171578,41.462738,"Urbanització Santelvira, 6, 08110 Montcada i Reixac, Spain"
metro,2.185391,41.451492,"Pas d'Antonio Cuadrillero, 08033 Barcelona, Spain"
metro,2.174473,41.460889,"Carrer del Pedraforca, 08033 Barcelona, Spain"
metro,2.18058,41.459194,"Avinguda d'Escolapi Càncer, 08033 Barcelona, Spain"
metro,2.17912,41.459624,"Institut Pablo Ruiz Picaso, Carrer de Sant Feliu de Codines, 08033 Barcelona, Spain"
metro,2.17985,41.459409,"Institut Pablo Ruiz Picaso, Carrer de Sant Feliu de Codines, 08033 Barcelona, Spain"
metro,2.205987,41.423471,"Rambla Guipúscoa / Ca n'Oliva, Rambla de Guipúscoa, 08020 Barcelona, Spain"
metro,2.217241,41.433816,"Ali Baba, Avinguda d'Alfons XIII, 08913 Badalona, Spain"
metro,2.217371,41.433504,"Avinguda d'Alfons XIII, 567, 08918 Badalona, Spain"
metro,2.216803,41.433879,"Carretera de Santa Coloma, 6, 08913 Badalona, Spain"
metro,2.196179,41.415594,"Rambla de Guipúscoa, 08020 Barcelona, Spain"
metro,2.195092,41.414799,"Rambla de Guipúscoa, 08020 Barcelona, Spain"
metro,2.195013,41.415283,"Rambla de Guipúscoa, 37, 08020 Barcelona, Spain"
metro,2.244209,41.449132,"Carrer d'Anselm Clavé, 08912 Badalona, Spain"
metro,2.186173,41.410117,"Carrer de Sibelius, 1, 08026 Barcelona, Spain"
metro,2.186554,41.4101,"Carrer de València, 08026 Barcelona, Spain"
metro,2.182802,41.407068,"Delas, Carrer de València, 554, 08026 Barcelona, Spain"
metro,2.182167,41.407271,"Amanecer, Carrer del Dos de Maig, 232, 08026 Barcelona, Spain"
metro,2.182557,41.407338,"Carrer de València, 553, 08026 Barcelona, Spain"
metro,2.23404,41.440639,"Avinguda del Marquès de Mont-roig, 08910 Badalona, Spain"
metro,2.234255,41.441113,"Plaça del President Tarradellas, 08910 Badalona, Spain"
metro,2.233988,41.44129,"Plaça del President Tarradellas, 08910 Badalona, Spain"
metro,2.206689,41.423827,"Rambla de Guipúscoa, 161, 08020 Barcelona, Spain"
metro,2.180022,41.400331,"Pizza Di Como, Carrer de la Diputació, 08013 Barcelona, Spain"
metro,2.179581,41.40018,"Carrer de la Marina, 189, 08013 Barcelona, Spain"
metro,2.180037,41.400087,"Carrer de la Diputació, 08013 Barcelona, Spain"
metro,2.168228,41.375231,"Avinguda del Paral·lel, 08001 Barcelona, Spain"
metro,2.167765,41.374796,"Avinguda del Paral·lel, 77, 08001 Barcelona, Spain"
metro,2.167579,41.375091,"Avinguda del Paral·lel, 08001 Barcelona, Spain"
metro,2.167762,41.389284,"Gran Via de les Corts Catalanes (lateral muntanya), 08007 Barcelona, Spain"
metro,2.168735,41.389295,"Passeig de Gràcia, 16, 08007 Barcelona, Spain"
metro,2.16833,41.389533,"Gran Via de les Corts Catalanes, 08007 Barcelona, Spain"
metro,2.23821,41.444591,"Plaça de la Tenora, 08912 Badalona, Spain"
metro,2.239146,41.445295,"Carrer de Saragossa, 2, 08912 Badalona, Spain"
metro,2.238942,41.444538,"Plaça dels Països Catalans, 08912 Badalona, Spain"
metro,2.238365,41.44515,"Avinguda d'Alfons XIII, 10-12, 08912 Badalona, Spain"
metro,2.175562,41.403847,"Carrer de Mallorca, 08013 Barcelona, Spain"
metro,2.176315,41.404257,"Carrer de Mallorca, 417, 08013 Barcelona, Spain"
metro,2.162901,41.37916,"Caixabank, Ronda de Sant Antoni, 08015 Barcelona, Spain"
metro,2.163172,41.380689,"Ronda de Sant Antoni, 17, 08011 Barcelona, Spain"
metro,2.163409,41.37899,"Multiopticas, Ronda de Sant Antoni, 2, 08015 Barcelona, Spain"
metro,2.163015,41.379953,"Carrer de Tamarit, 166, 08015 Barcelona, Spain"
metro,2.201262,41.419459,"Rambla de Guipúscoa, 08020 Barcelona, Spain"
metro,2.200095,41.418604,"Rambla de Guipúscoa, 08020 Barcelona, Spain"
metro,2.200601,41.419306,"Ibercaja, Rambla de Guipúscoa, 08020 Barcelona, Spain"
metro,2.228147,41.435342,"Avinguda del Marquès de Mont-roig, 08918 Badalona, Spain"
metro,2.228502,41.435868,"Avinguda del Marquès de Mont-roig, 200, 08918 Badalona, Spain"
metro,2.227784,41.435516,"Avinguda del Marquès de Mont-roig, 208, 08918 Badalona, Spain"
metro,2.175485,41.394285,"Plaça de Tetuan, 7, 08010 Barcelona, Spain"
metro,2.174676,41.394956,"Bracafé, Plaça de Tetuan, 17-18, 08010 Barcelona, Spain"
metro,2.174591,41.394624,"Chong Qing, Plaça de Tetuan, 14, 08010 Barcelona, Spain"
metro,2.163699,41.385021,"Plaça de la Universitat, 4, 08011 Barcelona, Spain"
metro,2.163681,41.384514,"Ronda de Sant Antoni, 59, 08011 Barcelona, Spain"
metro,2.16414,41.384844,"Ronda de Sant Antoni, 100, 08011 Barcelona, Spain"
metro,2.163252,41.385015,"Escola Sant Francesc d'Assís, Plaça de la Universitat, 2, 08011 Barcelona, Spain"
metro,2.209904,41.430056,"Carrer d'Alarcón, 62, 08930 Sant Adrià de Besòs, Spain"
metro,2.21027,41.429935,"Carrer de Balmes, 34, 08930 Sant Adrià de Besòs, Spain"
metro,2.209632,41.430299,"Carrer de Balmes, 67, 08930 Sant Adrià de Besòs, Spain"
metro,2.142987,41.424923,"Mercat de Vall d'Hebron, Carrer de Coll i Alentorn, 08035 Barcelona, Spain"
metro,2.142012,41.4251,"Passeig de la Vall d'Hebron, 08035 Barcelona, Spain"
metro,2.18295,41.449264,"Carrer d'Aiguablava, 08033 Barcelona, Spain"
metro,2.165196,41.441671,"García Lorca, Carrer de Federico García Lorca, 08042 Barcelona, Spain"
metro,2.166353,41.441845,"Via Favència, 41-47, 08042 Barcelona, Spain"
metro,2.166078,41.442024,"Carrer d'Antonio Machado, 08042 Barcelona, Spain"
metro,2.169571,41.385366,"Pull & Bear, Carrer de Pelai, 08001 Barcelona, Spain"
metro,2.170725,41.38604,"Hard Rock Cafè, Plaça Catalunya, 21-22, 08002 Barcelona, Spain"
metro,2.170075,41.385531,"La Rambla, 08002 Barcelona, Spain"
metro,2.169714,41.385946,"BitBase ATM, Plaça Catalunya, 1, 08002 Barcelona, Spain"
metro,2.170344,41.386286,"Catalonia Square, Plaça de Catalunya, 08001 Barcelona, Spain"
metro,2.160122,41.396315,"Passeig de Gràcia (lateral Besòs), 08008 Barcelona, Spain"
metro,2.160904,41.395745,"Passeig de Gràcia, 102, 08008 Barcelona, Spain"
metro,2.160499,41.395422,"Passeig de Gràcia, 99, 08008 Barcelona, Spain"
metro,2.159713,41.39611,"Passeig de Gràcia (lateral Llobregat), 08008 Barcelona, Spain"
metro,2.160473,41.395755,"Passeig de Gràcia, 08008 Barcelona, Spain"
metro,2.175556,41.376673,"Carrer del Portal de Santa Madrona, 10, 08002 Barcelona, Spain"
metro,2.175987,41.377112,"Santa Madrona, Carrer del Portal de Santa Madrona, 08002 Barcelona, Spain"
metro,2.176443,41.3772,"Palau Marc, La Rambla, 08002 Barcelona, Spain"
metro,2.176285,41.376817,"La Rambla, 08002 Barcelona, Spain"
metro,2.149829,41.374513,"unnamed road, 08015 Barcelona, Spain"
metro,2.150171,41.374826,"unnamed road, 08015 Barcelona, Spain"
metro,2.150029,41.375363,"Gran Via de les Corts Catalanes (lateral mar), 08015 Barcelona, Spain"
metro,2.14909,41.374291,"unnamed road, 08015 Barcelona, Spain"
metro,2.150301,41.37516,"unnamed road, 08015 Barcelona, Spain"
metro,2.152798,41.402597,"Carrer d'Astúries, 1, 3, 08006 Barcelona, Spain"
metro,2.152815,41.402297,"Carrer Gran de Gràcia, 164, 08012 Barcelona, Spain"
metro,2.130847,41.38397,"Travessera de les Corts, 08028 Barcelona, Spain"
metro,2.130678,41.384233,"Travessera de les Corts, 227, 08028 Barcelona, Spain"
metro,2.131389,41.384545,"Travessera de les Corts, 08028 Barcelona, Spain"
metro,2.149572,41.40611,"Plaça de Lesseps, 30, 08023 Barcelona, Spain"
metro,2.150391,41.406599,"Plaça de Lesseps, 6, 08023 Barcelona, Spain"
metro,2.172794,41.381722,"El Quim De La Boqueria, La Rambla, 91, 08002 Barcelona, Spain"
metro,2.173507,41.380969,"La Rambla, 63, 08002 Barcelona, Spain"
metro,2.17353,41.380666,"La Rambla, 08001 Barcelona, Spain"
metro,2.126495,41.387932,"Maria Cristina, Avinguda Diagonal (lateral mar), 08028 Barcelona, Spain"
metro,2.126135,41.388261,"Avinguda Diagonal, 08028 Barcelona, Spain"
metro,2.127857,41.388357,"Avinguda Diagonal, 08028 Barcelona, Spain"
metro,2.126304,41.388204,"Avinguda Diagonal, 08028 Barcelona, Spain"
metro,2.144554,41.430627,"Passeig de la Vall d'Hebron, 135-141, 08035 Barcelona, Spain"
metro,2.145257,41.43056,"Passeig de la Vall d'Hebron, 08035 Barcelona, Spain"
metro,2.145191,41.430847,"Ronda de Dalt, 08035 Barcelona, Spain"
metro,2.147798,41.434855,"Passeig de la Vall d'Hebron, 08035 Barcelona, Spain"
metro,2.148557,41.435325,"Avinguda de Can Marcet, 08035 Barcelona, Spain"
metro,2.147015,41.435432,"Centre de Vida Independent, Passeig de la Vall d'Hebron, 159-169, 08035 Barcelona, Spain"
metro,2.147496,41.435235,"Ronda de Dalt, 08035 Barcelona, Spain"
metro,2.118013,41.385808,"Avinguda Diagonal, 08034 Barcelona, Spain"
metro,2.117869,41.386116,"unnamed road, 08034 Barcelona, Spain"
metro,2.117872,41.385906,"Avinguda Diagonal, 08034 Barcelona, Spain"
metro,2.170083,41.374728,"Avinguda del Paral·lel, 57-61, 08004 Barcelona, Spain"
metro,2.170433,41.375177,"Lemos, Avinguda del Paral·lel, 54-58, 08001 Barcelona, Spain"
metro,2.170718,41.375079,"Avinguda del Paral·lel, 54-58, 08001 Barcelona, Spain"
metro,2.165242,41.392217,"Santander Bank, Carrer d'Aragó, 278-280, 08007 Barcelona, Spain"
metro,2.164802,41.391905,"MUSSOL, Carrer d'Aragó, 274-276, 08007 Barcelona, Spain"
metro,2.165646,41.391351,"Passeig de Gràcia, 08007 Barcelona, Spain"
metro,2.164871,41.392581,"ETRO, Passeig de Gràcia, 56, 08007 Barcelona, Spain"
metro,2.164453,41.392328,"Passeig de Gràcia (lateral Llobregat), 08007 Barcelona, Spain"
metro,2.16457,41.392896,"Sixtytwo, Passeig de Gràcia, 62, 08007 Barcelona, Spain"
metro,2.140978,41.417691,"Avinguda de Vallcarca, 207, 209, 211, 08035 Barcelona, Spain"
metro,2.140979,41.417205,"El camí dels vents. Espai de rehabilitació i lúdic per als pacients, familiars i ciutadans, 08023 Barcelona, Spain"
metro,2.140751,41.417963,"Avinguda de Vallcarca, 213, 215, 217, 219, 221, 08035 Barcelona, Spain"
metro,2.13621,41.382176,"Carrer dels Comtes de Bell-lloc, 131, 133, 08014 Barcelona, Spain"
metro,2.136549,41.382673,"Carrer de Berlín, 7, 08014 Barcelona, Spain"
metro,2.16169,41.375204,"Avinguda del Paral·lel, 126B, 08004 Barcelona, Spain"
metro,2.161109,41.375204,"Carrer de Calàbria, 08015 Barcelona, Spain"
metro,2.158936,41.37487,"Avinguda del Paral·lel, 135-137, 08015 Barcelona, Spain"
metro,2.158822,41.37522,"Carrer de Rocafort, 08015 Barcelona, Spain"
metro,2.15988,41.375147,"Avinguda del Paral·lel, 136, 08015 Barcelona, Spain"
metro,2.17602,41.446933,"Carrer de les Torres, 46, 08042 Barcelona, Spain"
metro,2.177118,41.44795,"unnamed road, 08042 Barcelona, Spain"
metro,2.175017,41.446909,"Carrer de les Torres, 60, 08042 Barcelona, Spain"
metro,2.176252,41.447394,"Carrer del Pla de Fornells, 38, 08042 Barcelona, Spain"
metro,2.142019,41.381157,"Sun, Avinguda de Josep Tarradellas, 5, 7, 08029 Barcelona, Spain"
metro,2.139887,41.381979,"Carrer de Dolors Batlle i Sunyer, 19, 08029 Barcelona, Spain"
metro,2.141603,41.380858,"CAPI Sant Joan de Deu, Carrer de Numància, 7, 08029 Barcelona, Spain"
metro,2.140542,41.382298,"Carrer de Numància, 22, 24, 08029 Barcelona, Spain"
metro,2.141512,41.381522,"Farmàcia Matabosch Vilaseca, Xavier, Carrer de Numància, 14, 08029 Barcelona, Spain"
metro,2.146052,41.378249,"Aragó, Carrer de Tarragona, 08029 Barcelona, Spain"
metro,2.145225,41.378805,"Bankinter, Carrer de Tarragona, 08029 Barcelona, Spain"
metro,2.144456,41.378852,"Carrer de Tarragona, 08029 Barcelona, Spain"
metro,2.145436,41.378064,"Carrer de Tarragona, 08029 Barcelona, Spain"
metro,2.145478,41.378565,"Logia Barcelona, Carrer de Tarragona, 84, 08015 Barcelona, Spain"
metro,2.184187,41.449312,"Carrer de Chafarinas, 27, 08033 Barcelona, Spain"
metro,2.18472,41.4493,"Carrer de Chafarinas, 08033 Barcelona, Spain"
metro,2.184457,41.449665,"Carrer de Chafarinas, 27, 08033 Barcelona, Spain"
metro,2.184161,41.449514,"Carrer de Chafarinas, 08033 Barcelona, Spain"
metro,2.142547,41.425262,"Ronda de Dalt, 08035 Barcelona, Spain"
metro,2.144798,41.411753,"Avinguda de Vallcarca, 107X, 08023 Barcelona, Spain"
metro,2.144863,41.411461,"Avinguda de la República Argentina, 120U, 08023 Barcelona, Spain"
metro,2.145084,41.411401,"Avinguda de la República Argentina, 08023 Barcelona, Spain"
metro,2.157006,41.438128,"Centre Educatiu Providencia del Corazón de Jesús, Carrer d'Hedilla, 08031 Barcelona, Spain"
metro,2.156392,41.437571,"Passeig de Valldaura, 26, 08031 Barcelona, Spain"
metro,2.111704,41.384208,"Avinguda Diagonal, 08034 Barcelona, Spain"
metro,2.111621,41.384639,"Avinguda Diagonal (lateral muntanya), 08034 Barcelona, Spain"
metro,2.1104,41.384138,"unnamed road, 08034 Barcelona, Spain"
metro,2.181619,41.44867,"Carrer d'Aiguablava, 08033 Barcelona, Spain"
metro,2.182475,41.449285,"Carrer d'Aiguablava, 08033 Barcelona, Spain"
metro,2.17722,41.424489,"Carrer de Ramon Albó, 1-3, 08041 Barcelona, Spain"
metro,2.166884,41.412047,"Ronda del Guinardó, 46, 08025 Barcelona, Spain"
metro,2.16623,41.412431,"Club de Petanca Baix Guinardó, Plaça d'Alfons el Savi, 08025 Barcelona, Spain"
metro,2.165088,41.412123,"Plaça d'Alfons el Savi, 3-5, 08025 Barcelona, Spain"
metro,2.166162,41.411775,"Ronda del Guinardó, 38, 08025 Barcelona, Spain"
metro,2.185811,41.382237,"Carrer del Doctor Aiguader, 08003 Barcelona, Spain"
metro,2.18566,41.382674,"unnamed road, 08003 Barcelona, Spain"
metro,2.217105,41.414575,"Carrer d'Alfons el Magnànim, 08019 Barcelona, Spain"
metro,2.215632,41.415468,"Carrer d'Alfons el Magnànim, 57, 08019 Barcelona, Spain"
metro,2.215688,41.415007,"Carrer de Xavier Nogués, 33-63, 08019 Barcelona, Spain"
metro,2.210317,41.420291,"Gran Via de les Corts Catalanes, 1180-1178, 08020 Barcelona, Spain"
metro,2.191575,41.394936,"Carrer de Zamora, 64, 08005 Barcelona, Spain"
metro,2.192791,41.395438,"Carrer de Pujades, 84, 08018 Barcelona, Spain"
metro,2.192179,41.395239,"Carrer de Pujades, 08018 Barcelona, Spain"
metro,2.191499,41.395301,"Carrer de Pere IV, 41, 08018 Barcelona, Spain"
metro,2.193191,41.38821,"Ciutadella | Vila Olímpica, Carrer de Ramon Trias Fargas, 08003 Barcelona, Spain"
metro,2.193327,41.38792,"Passeig de Circumval·lació, 08003 Barcelona, Spain"
metro,2.192713,41.388147,"Passeig de Circumval·lació, 08003 Barcelona, Spain"
metro,2.215909,41.41174,"Carrer de Llull, 387-389, 08019 Barcelona, Spain"
metro,2.217331,41.412265,"Carrer de Llull, 08019 Barcelona, Spain"
metro,2.216969,41.411963,"Carrer de Llull, 404, 08019 Barcelona, Spain"
metro,2.170859,41.394823,"Girona, Carrer del Consell de Cent, 08009 Barcelona, Spain"
metro,2.171334,41.394796,"Monster Sushi, Carrer de Girona, 68, 08009 Barcelona, Spain"
metro,2.171406,41.39526,"Carrer del Consell de Cent, 380, 08009 Barcelona, Spain"
metro,2.174241,41.416004,"Ronda del Guinardó, 08041 Barcelona, Spain"
metro,2.174437,41.416378,"Pizzeria Ninones, Ronda del Guinardó, 08041 Barcelona, Spain"
metro,2.174535,41.415996,"Carrer del Mas Casanovas, 08041 Barcelona, Spain"
metro,2.178343,41.384137,"Via Laietana, 25, 08003 Barcelona, Spain"
metro,2.179204,41.383774,"Via Laietana, 16, 08003 Barcelona, Spain"
metro,2.179125,41.383984,"Carrer de l'Argenteria, 15-17, 08003 Barcelona, Spain"
metro,2.162763,41.406051,"Carrer de Pi i Margall, 1, 3, 08024 Barcelona, Spain"
metro,2.163163,41.406001,"Carrer de Pi i Margall, 12, 08025 Barcelona, Spain"
metro,2.163315,41.406523,"Carrer de Pi i Margall, 08024 Barcelona, Spain"
metro,2.206472,41.423961,"Rambla de Guipúscoa, 161, 08020 Barcelona, Spain"
metro,2.19746,41.399026,"Carrer de Pujades, 134, 08005 Barcelona, Spain"
metro,2.197247,41.399257,"Carrer de Pujades, 119, 08005 Barcelona, Spain"
metro,2.172883,41.436715,"Pi i Molist, Passeig de Verdum, 08016 Barcelona, Spain"
metro,2.173684,41.43758,"Passeig de Verdum, 57B, 08016 Barcelona, Spain"
metro,2.173953,41.437178,"Plaça dels Jardins d'Alfàbia, 08016 Barcelona, Spain"
metro,2.173484,41.437215,"Passeig de Verdum, 41-53, 08016 Barcelona, Spain"
metro,2.177349,41.422701,"Ronda del Guinardó, 08041 Barcelona, Spain"
metro,2.177694,41.424269,"Carrer de les Acàcies, 13A, 08041 Barcelona, Spain"
metro,2.167775,41.389664,"Passeig de Gràcia (lateral Llobregat), 08007 Barcelona, Spain"
metro,2.167682,41.389615,"Passeig de Gràcia, 13, 08007 Barcelona, Spain"
metro,2.202855,41.403481,"Poblenou, Carrer de Bilbao, 08005 Barcelona, Spain"
metro,2.203212,41.40344,"Carrer de Pujades, 228, 08005 Barcelona, Spain"
metro,2.209671,41.408202,"Selva de Mar, Carrer de la Selva de Mar, 08019 Barcelona, Spain"
metro,2.208411,41.407903,"Selva de Mar, Carrer de Provençals, 08019 Barcelona, Spain"
metro,2.209959,41.408155,"Carrer de la Selva de Mar, 08019 Barcelona, Spain"
metro,2.172613,41.388771,"Plaça d'Urquinaona, 08010 Barcelona, Spain"
metro,2.174157,41.387564,"Via Laietana, 56, 08003 Barcelona, Spain"
metro,2.173104,41.388481,"Burger King, Plaça d'Urquinaona, 11, 08010 Barcelona, Spain"
metro,2.168669,41.39999,"Passeig de Sant Joan, 08037 Barcelona, Spain"
metro,2.168592,41.40017,"Passeig de Sant Joan, 08037 Barcelona, Spain"
metro,2.178458,41.443382,"Via Júlia, 08042 Barcelona, Spain"
metro,2.178826,41.444145,"Via Júlia, 08042 Barcelona, Spain"
metro,2.178906,41.443928,"Via Júlia, 136, 08042 Barcelona, Spain"
metro,2.186497,41.420554,"Carrer de Felip II, 08027 Barcelona, Spain"
metro,2.126019,41.375495,"Carrer de Sants, 363, 08028 Barcelona, Spain"
metro,2.125579,41.375701,"UME Sants - Unió Musical, Carrer de Sants, 304 bis, 08028 Barcelona, Spain"
metro,2.128135,41.375637,"Carrer de Sants, 256, 08028 Barcelona, Spain"
metro,2.127313,41.375605,"Carrer de Sants, 08028 Barcelona, Spain"
metro,2.181742,41.415335,"Carrer de la Indústria, 291-291B, 08026 Barcelona, Spain"
metro,2.181114,41.414798,"Carrer de la Indústria, 08041 Barcelona, Spain"
metro,2.180938,41.414999,"Passeig de Maragall, 08041 Barcelona, Spain"
metro,2.090782,41.366055,"Carrer de l'Estronci, 08096 l'Hospitalet de Llobregat, Spain"
metro,2.091263,41.366148,"Carrer de l'Estronci, 08096 l'Hospitalet de Llobregat, Spain"
metro,2.099888,41.371578,"Sueños descans, Carrer de la Hierbabuena, 32, 08906 l'Hospitalet de Llobregat, Spain"
metro,2.099238,41.371318,"El Sazón de Isabel, Carrer de l'Hortensia, 24, 08906 Esplugues de Llobregat, Spain"
metro,2.120049,41.375998,"Carretera de Collblanc, 26, 08903 l'Hospitalet de Llobregat, Spain"
metro,2.118297,41.375791,"Plaça de la Solidaritat, 08904 l'Hospitalet de Llobregat, Spain"
metro,2.121098,41.37556,"Carretera de Collblanc, 5, 08903 l'Hospitalet de Llobregat, Spain"
metro,2.120678,41.375948,"Carrer de Pérez Galdós, 08094 l'Hospitalet de Llobregat, Spain"
metro,2.180781,41.423505,"Carrer de Garcilaso, 08027 Barcelona, Spain"
metro,2.182124,41.423447,"Matanzas, Carrer de Garcilaso, 08027 Barcelona, Spain"
metro,2.181609,41.423528,"Carrer de Garcilaso, 164-158, 08027 Barcelona, Spain"
metro,2.072672,41.356107,"Carrer Vicenç Llivina, 08940 Cornellà de Llobregat, Spain"
metro,2.072404,41.356151,"Carrer de Josep Cuxart, 08940 Cornellà de Llobregat, Spain"
metro,2.159106,41.394536,"Avirex, Rambla de Catalunya, 110, 08008 Barcelona, Spain"
metro,2.158487,41.394451,"Rambla de Catalunya, 117, 08008 Barcelona, Spain"
metro,2.15916,41.394887,"Flying Tiger Copenhagen, Carrer del Rosselló, 247, 08008 Barcelona, Spain"
metro,2.155013,41.423558,"Carrer del Llobregós, 161-165, 08032 Barcelona, Spain"
metro,2.156073,41.425418,"Plaça de Pastrana, 5-7, 08032 Barcelona, Spain"
metro,2.155126,41.424597,"Carrer de Sigüenza, 22, 08032 Barcelona, Spain"
metro,2.150142,41.420977,"Plaça de Margarida Fort, 1-1X, 08035 Barcelona, Spain"
metro,2.149504,41.419877,"Carrer del Beat Almató, 100, 08023 Barcelona, Spain"
metro,2.148073,41.423133,"Plaça Doctor Matías Guiu, 08035 Barcelona, Spain"
metro,2.148521,41.421974,"Carrer del Besòs, 29, 08035 Barcelona, Spain"
metro,2.144952,41.384126,"Forn del Cel, Carrer d'Entença, 178-180-182, 08029 Barcelona, Spain"
metro,2.146075,41.384981,"Carrer de Rocafort, 08029 Barcelona, Spain"
metro,2.145606,41.384454,"Carrer del Rosselló, 08029 Barcelona, Spain"
metro,2.078917,41.357389,"Avinguda de Salvador Allende, 4, 08940 Cornellà de Llobregat, Spain"
metro,2.079,41.35807,"Avinguda de Salvador Allende, 08940 Cornellà de Llobregat, Spain"
metro,2.078904,41.357707,"Avinguda de Salvador Allende, 4, 08940 Cornellà de Llobregat, Spain"
metro,2.158742,41.429811,"Carrer de Lisboa, 8, 08031 Barcelona, Spain"
metro,2.160483,41.42973,"Carrer del Tajo, 46, 08031 Barcelona, Spain"
metro,2.161228,41.430042,"Plaça d'Eivissa, 2, 08032 Barcelona, Spain"
metro,2.161178,41.429762,"Carrer del Tajo, 36, 08032 Barcelona, Spain"
metro,2.15177,41.388946,"Plaça de Concepció Aleixandre Ballester, 08036 Barcelona, Spain"
metro,2.150676,41.388476,"Salzburg, Carrer del Comte d'Urgell, 204, 08036 Barcelona, Spain"
metro,2.15029,41.388226,"Edifici del Rellotge, Carrer del Comte d'Urgell, 187, 08036 Barcelona, Spain"
metro,2.150984,41.389033,"Carrer de Villarroel, 08036 Barcelona, Spain"
metro,2.186579,41.422021,"Avinguda Meridiana, 271, 08027 Barcelona, Spain"
metro,2.186897,41.421556,"Avinguda Meridiana, 08027 Barcelona, Spain"
metro,2.176558,41.425638,"Carrer de Prat d'en Roquer, 08041 Barcelona, Spain"
metro,2.1759,41.425733,"Passeig de Maragall, 182, 08041 Barcelona, Spain"
metro,2.176475,41.425869,"Avinguda dels Quinze, 6, 08016 Barcelona, Spain"
metro,2.135849,41.375429,"Carrer de Sants, 08014 Barcelona, Spain"
metro,2.135034,41.375491,"Carrer de Joan Güell, 08014 Barcelona, Spain"
metro,2.13548,41.375444,"Carrer de Sants, 08014 Barcelona, Spain"
metro,2.106775,41.373558,"Avinguda del Doctor Ramon Solanich i Riera, 08905 l'Hospitalet de Llobregat, Spain"
metro,2.107033,41.37329,"Carrer d'Esteve Grau, 08905 l'Hospitalet de Llobregat, Spain"
metro,2.107647,41.374015,"Avinguda del Doctor Ramon Solanich i Riera, 08905 l'Hospitalet de Llobregat, Spain"
metro,2.108251,41.37406,"Avinguda del Doctor Ramon Solanich i Riera, 08905 l'Hospitalet de Llobregat, Spain"
metro,2.174231,41.404606,"Carrer de la Marina, 08025 Barcelona, Spain"
metro,2.173357,41.403512,"Carrer de Provença, 08013 Barcelona, Spain"
metro,2.173076,41.403762,"Gust Celestial, Carrer de Sardenya, 322, 08025 Barcelona, Spain"
metro,2.173877,41.404117,"Carrer de Provença, 435, 08025 Barcelona, Spain"
metro,2.083994,41.362753,"Avinguda de la República Argentina, 08940 Cornellà de Llobregat, Spain"
metro,2.084164,41.363278,"Avinguda de la República Argentina, 60, 08940 Cornellà de Llobregat, Spain"
metro,2.084574,41.36329,"Carrer dels Almogàvers, 08940 Cornellà de Llobregat, Spain"
metro,2.175393,41.410166,"El pulgarcito, Carrer de la Indústria, 172, 08025 Barcelona, Spain"
metro,2.176264,41.411214,"Savory express, Carrer de la Indústria, 08025 Barcelona, Spain"
metro,2.176324,41.411021,"Carrer de la Indústria, 08041 Barcelona, Spain"
metro,2.139739,41.379602,"Carrer de Viriat, 08014 Barcelona, Spain"
metro,2.139294,41.379699,"Carrer de Viriat, 08014 Barcelona, Spain"
metro,2.141445,41.425067,"Avinguda del Jordà, 08035 Barcelona, Spain"
metro,2.167494,41.399121,"Carrer de Bailèn, 139, 08037 Barcelona, Spain"
metro,2.166277,41.398676,"Canela Patentes y Marcas, Carrer de Girona, 148, 08037 Barcelona, Spain"
metro,2.166728,41.398769,"Carrer de Provença, 317-319, 08037 Barcelona, Spain"
metro,2.166992,41.430601,"Passeig de Fabra i Puig, 344, 08031 Barcelona, Spain"
metro,2.168457,41.430572,"Passeig de Fabra i Puig, 326, 08031 Barcelona, Spain"
metro,2.16701,41.430319,"Passeig de Fabra i Puig, 321, 08031 Barcelona, Spain"
metro,2.16776,41.430824,"Carrer del Cadí, 16-14, 08031 Barcelona, Spain"
metro,2.175568,41.429214,"Felip II, Carrer de Felip II, 08016 Barcelona, Spain"
metro,2.174603,41.430476,"Carrer del Doctor Pi i Molist, 08016 Barcelona, Spain"
metro,2.174133,41.430266,"Avinguda dels Quinze, 08016 Barcelona, Spain"
metro,2.174845,41.429404,"Av. Els Quinze, Plaça del Virrei Amat, 08016 Barcelona, Spain"
metro,2.174875,41.429732,"Carrer de Felip II, 08016 Barcelona, Spain"
metro,2.205212,41.436173,"Carrer de Sant Adrià, 05030 Barcelona, Spain"
metro,2.204794,41.436065,"Bon Pastor, Carrer de Sant Adrià, 05030 Barcelona, Spain"
metro,2.186242,41.42096,"Carrer de Felip II, 08027 Barcelona, Spain"
metro,2.193133,41.429748,"Sant Andreu Centre Esportiu Municipal, Carrer de Santa Coloma, 08030 Barcelona, Spain"
metro,2.210131,41.444246,"Avinguda Banús Baixa, Avinguda de Can Peixauet, 08922 Santa Coloma de Gramenet, Spain"
metro,2.19855,41.457253,"Avinguda de Francesc Macià, 08924 Santa Coloma de Gramenet, Spain"
metro,2.212413,41.454503,"Plaça dels Enamorats, 08921 Santa Coloma de Gramenet, Spain"
metro,2.215908,41.446684,"Carrer de Dalt dels Banús, 08923 Santa Coloma de Gramenet, Spain"
metro,2.20578,41.459366,"Plaça Sagrada Familia, 08924 Santa Coloma de Gramenet, Spain"
street_Diagonal,2.1076809,41.3833622,"Avinguda Diagonal (central), 08904 Barcelona, Spain"
street_Diagonal,2.1095691,41.3838774,"unnamed road, 08034 Barcelona, Spain"
street_Diagonal,2.1112857,41.3843926,"Avinguda Diagonal, 08034 Barcelona, Spain"
street_Diagonal,2.1129165,41.3849078,"Avinguda Diagonal, 08034 Barcelona, Spain"
street_Diagonal,2.1151481,41.3853586,"Avinguda Diagonal, 08034 Barcelona, Spain"
street_Diagonal,2.1169506,41.3857127,"Avinguda Diagonal, 08034 Barcelona, Spain"
street_Diagonal,2.1186243,41.3861635,"Avinguda Diagonal, 08034 Barcelona, Spain"
street_Diagonal,2.1200405,41.3866787,"Carrer de Pere Duran Farell, 08034 Barcelona, Spain"
street_Diagonal,2.1217142,41.3870973,"Avinguda Diagonal, 08034 Barcelona, Spain"
street_Diagonal,2.1234737,41.3874514,"Avinguda Diagonal, 537, 08034 Barcelona, Spain"
street_Diagonal,2.1255336,41.3879344,"Avinguda Diagonal, 08028 Barcelona, Spain"
street_Diagonal,2.1272932,41.3884495,"Plaça de la Reina Maria Cristina, 08028 Barcelona, Spain"
street_Diagonal,2.1293102,41.3889647,"Avinguda Diagonal, 08028 Barcelona, Spain"
street_Diagonal,2.1317564,41.3895442,"Avinguda Diagonal, 08028 Barcelona, Spain"
street_Diagonal,2.1333871,41.3899628,"Avinguda Diagonal, 08021 Barcelona, Spain"
street_Diagonal,2.1352754,41.3904135,"Avinguda Diagonal, 08021 Barcelona, Spain"
street_Diagonal,2.1370779,41.3909931,"Avinguda Diagonal, 08021 Barcelona, Spain"
street_Diagonal,2.1394382,41.391476,"Avinguda Diagonal, 08021 Barcelona, Spain"
street_Diagonal,2.1419702,41.3919911,"Avinguda Diagonal, 08021 Barcelona, Spain"
street_Diagonal,2.1446095,41.3929248,"Plaça de Francesc Macià, 08021 Barcelona, Spain"
street_Diagonal,2.1469699,41.3934721,"Avinguda Diagonal, 08036 Barcelona, Spain"
street_Diagonal,2.1490298,41.3940838,"Hesperia Presidente, Avinguda Diagonal, 570, 08021 Barcelona, Spain"
street_Diagonal,2.1517335,41.3945345,"Avinguda Diagonal, 08036 Barcelona, Spain"
street_Diagonal,2.1529588,41.3949042,"Avinguda Diagonal, 08036 Barcelona, Spain"
street_Diagonal,2.1543964,41.3952744,"Avinguda Diagonal, 08036 Barcelona, Spain"
street_Diagonal,2.1555015,41.3955722,"Avinguda Diagonal, 08008 Barcelona, Spain"
street_Diagonal,2.1565208,41.3958539,"Avinguda Diagonal, 08036 Barcelona, Spain"
street_Diagonal,2.1575615,41.3960873,"Avinguda Diagonal, 08008 Barcelona, Spain"
street_Diagonal,2.1582588,41.3963207,"Avinguda Diagonal, 08036 Barcelona, Spain"
street_Diagonal,2.1590742,41.3964978,"Avinguda Diagonal, 08008 Barcelona, Spain"
street_Diagonal,2.1602758,41.3967875,"Avinguda de la Diagonal, 08008 Barcelona, Spain"
street_Diagonal,2.1613005,41.397029,"Avinguda Diagonal, 08008 Barcelona, Spain"
street_Diagonal,2.1597072,41.396707,"Avinguda Diagonal, 08008 Barcelona, Spain"
street_Diagonal,2.1620998,41.3971819,"Avinguda Diagonal, 08008 Barcelona, Spain"
street_Diagonal,2.162899,41.3974072,"Avinguda Diagonal, 08037 Barcelona, Spain"
street_Diagonal,2.1637574,41.3976084,"Avinguda Diagonal, 08037 Barcelona, Spain"
street_Diagonal,2.164562,41.3977694,"Avinguda Diagonal, 08037 Barcelona, Spain"
street_Diagonal,2.1653989,41.398043,"Avinguda Diagonal, 08037 Barcelona, Spain"
street_Diagonal,2.1663215,41.3982845,"Avinguda Diagonal, 08037 Barcelona, Spain"
street_Diagonal,2.1671048,41.3984857,"Avinguda Diagonal, 08037 Barcelona, Spain"
street_Diagonal,2.1678343,41.3986949,"Avinguda de la Diagonal, 08037 Barcelona, Spain"
street_Diagonal,2.168639,41.3988961,"Avinguda de la Diagonal, 08037 Barcelona, Spain"
street_Diagonal,2.1694651,41.3991134,"Avinguda Diagonal, 08009 Barcelona, Spain"
street_Diagonal,2.1706614,41.3993146,"Avinguda Diagonal (lateral mar), 08009 Barcelona, Spain"
street_Diagonal,2.171525,41.3995882,"Avinguda Diagonal, 08013 Barcelona, Spain"
street_Diagonal,2.1725228,41.3998377,"Avinguda Diagonal, 08013 Barcelona, Spain"
street_Diagonal,2.1735957,41.4000792,"Avinguda Diagonal, 08013 Barcelona, Spain"
street_Diagonal,2.1743253,41.4003447,"Avinguda Diagonal, 08013 Barcelona, Spain"
street_Diagonal,2.175205,41.4004896,"Avinguda Diagonal, 08013 Barcelona, Spain"
street_Diagonal,2.1765569,41.4008276,"Carrer d'Aragó, 08013 Barcelona, Spain"
street_Diagonal,2.1774152,41.4011012,"Plaça de Pablo Neruda, 1-1X, 08013 Barcelona, Spain"
street_Diagonal,2.1783218,41.4013105,"Plaça de Pablo Neruda, 1-1X, 08013 Barcelona, Spain"
street_Diagonal,2.1794751,41.4016002,"Avinguda Diagonal, 08013 Barcelona, Spain"
street_Diagonal,2.1804407,41.4017772,"Avinguda Diagonal, 08013 Barcelona, Spain"
street_Diagonal,2.1818676,41.4021796,"Carrer de Padilla, 08013 Barcelona, Spain"
street_Diagonal,2.1828761,41.4024371,"Avinguda Diagonal, 08013 Barcelona, Spain"
street_Diagonal,2.1838203,41.4026946,"Avinguda Diagonal, 08013 Barcelona, Spain"
